{
    "coordinates" : [
    "$GPGGA,112309.941,5230.854,N,01320.862,E,1,12,1.0,0.0,M,0.0,M,,*6B\n$GPGSA,A,3,01,02,03,04,05,06,07,08,09,10,11,12,1.0,1.0,1.0*30\n$GPRMC,112309.941,A,5230.854,N,01320.862,E,312.3,273.8,140322,000.0,W*74",

    "$GPGGA,112310.941,5230.864,N,01320.721,E,1,12,1.0,0.0,M,0.0,M,,*68\n$GPGSA,A,3,01,02,03,04,05,06,07,08,09,10,11,12,1.0,1.0,1.0*30\n$GPRMC,112310.941,A,5230.864,N,01320.721,E,323.9,255.8,140322,000.0,W*7B",

    "$GPGGA,112311.941,5230.829,N,01320.584,E,1,12,1.0,0.0,M,0.0,M,,*6D\n$GPGSA,A,3,01,02,03,04,05,06,07,08,09,10,11,12,1.0,1.0,1.0*30\n$GPRMC,112311.941,A,5230.829,N,01320.584,E,271.5,267.8,140322,000.0,W*75",

    "$GPGGA,112312.941,5230.824,N,01320.460,E,1,12,1.0,0.0,M,0.0,M,,*68\n$GPGSA,A,3,01,02,03,04,05,06,07,08,09,10,11,12,1.0,1.0,1.0*30\n$GPRMC,112312.941,A,5230.824,N,01320.460,E,289.3,266.6,140322,000.0,W*7E",

    "$GPGGA,112313.941,5230.817,N,01320.329,E,1,12,1.0,0.0,M,0.0,M,,*63\n$GPGSA,A,3,01,02,03,04,05,06,07,08,09,10,11,12,1.0,1.0,1.0*30\n$GPRMC,112313.941,A,5230.817,N,01320.329,E,306.1,266.8,140322,000.0,W*7F",

    "$GPGGA,112314.941,5230.809,N,01320.190,E,1,12,1.0,0.0,M,0.0,M,,*6B\n$GPGSA,A,3,01,02,03,04,05,06,07,08,09,10,11,12,1.0,1.0,1.0*30\n$GPRMC,112314.941,A,5230.809,N,01320.190,E,441.2,087.8,140322,000.0,W*7D",

    "$GPGGA,112315.941,5230.817,N,01320.391,E,1,12,1.0,0.0,M,0.0,M,,*66\n$GPGSA,A,3,01,02,03,04,05,06,07,08,09,10,11,12,1.0,1.0,1.0*30\n$GPRMC,112315.941,A,5230.817,N,01320.391,E,307.4,085.5,140322,000.0,W*7C",

    "$GPGGA,112316.941,5230.828,N,01320.530,E,1,12,1.0,0.0,M,0.0,M,,*64\n$GPGSA,A,3,01,02,03,04,05,06,07,08,09,10,11,12,1.0,1.0,1.0*30\n$GPRMC,112316.941,A,5230.828,N,01320.530,E,283.7,086.5,140322,000.0,W*73",

    "$GPGGA,112317.941,5230.835,N,01320.659,E,1,12,1.0,0.0,M,0.0,M,,*65\n$GPGSA,A,3,01,02,03,04,05,06,07,08,09,10,11,12,1.0,1.0,1.0*30\n$GPRMC,112317.941,A,5230.835,N,01320.659,E,333.5,088.2,140322,000.0,W*73",

    "$GPGGA,112318.941,5230.840,N,01320.811,E,1,12,1.0,0.0,M,0.0,M,,*6A\n$GPGSA,A,3,01,02,03,04,05,06,07,08,09,10,11,12,1.0,1.0,1.0*30\n$GPRMC,112318.941,A,5230.840,N,01320.811,E,1218.4,266.9,140322,000.0,W*4D",

    "$GPGGA,112319.941,5230.810,N,01320.257,E,1,12,1.0,0.0,M,0.0,M,,*66\n$GPGSA,A,3,01,02,03,04,05,06,07,08,09,10,11,12,1.0,1.0,1.0*30\n$GPRMC,112319.941,A,5230.810,N,01320.257,E,1459.4,086.2,140322,000.0,W*45",

    "$GPGGA,112320.941,5230.854,N,01320.919,E,1,12,1.0,0.0,M,0.0,M,,*6D\n$GPGSA,A,3,01,02,03,04,05,06,07,08,09,10,11,12,1.0,1.0,1.0*30\n$GPRMC,112320.941,A,5230.854,N,01320.919,E,186.8,264.9,140322,000.0,W*71",

    "$GPGGA,112321.941,5230.847,N,01320.834,E,1,12,1.0,0.0,M,0.0,M,,*60\n$GPGSA,A,3,01,02,03,04,05,06,07,08,09,10,11,12,1.0,1.0,1.0*30\n$GPRMC,112321.941,A,5230.847,N,01320.834,E,196.8,267.2,140322,000.0,W*75",

    "$GPGGA,112322.941,5230.842,N,01320.745,E,1,12,1.0,0.0,M,0.0,M,,*6F\n$GPGSA,A,3,01,02,03,04,05,06,07,08,09,10,11,12,1.0,1.0,1.0*30\n$GPRMC,112322.941,A,5230.842,N,01320.745,E,168.7,281.9,140322,000.0,W*77",

    "$GPGGA,112323.941,5230.858,N,01320.672,E,1,12,1.0,0.0,M,0.0,M,,*60\n$GPGSA,A,3,01,02,03,04,05,06,07,08,09,10,11,12,1.0,1.0,1.0*30\n$GPRMC,112323.941,A,5230.858,N,01320.672,E,184.1,267.0,140322,000.0,W*7D",

    "$GPGGA,112324.941,5230.853,N,01320.589,E,1,12,1.0,0.0,M,0.0,M,,*6B\n$GPGSA,A,3,01,02,03,04,05,06,07,08,09,10,11,12,1.0,1.0,1.0*30\n$GPRMC,112324.941,A,5230.853,N,01320.589,E,182.4,267.8,140322,000.0,W*7D",

    "$GPGGA,112325.941,5230.850,N,01320.505,E,1,12,1.0,0.0,M,0.0,M,,*6D\n$GPGSA,A,3,01,02,03,04,05,06,07,08,09,10,11,12,1.0,1.0,1.0*30\n$GPRMC,112325.941,A,5230.850,N,01320.505,E,219.5,265.0,140322,000.0,W*71",

    "$GPGGA,112326.941,5230.842,N,01320.406,E,1,12,1.0,0.0,M,0.0,M,,*6F\n$GPGSA,A,3,01,02,03,04,05,06,07,08,09,10,11,12,1.0,1.0,1.0*30\n$GPRMC,112326.941,A,5230.842,N,01320.406,E,116.4,266.2,140322,000.0,W*7F",

    "$GPGGA,112327.941,5230.838,N,01320.354,E,1,12,1.0,0.0,M,0.0,M,,*63\n$GPGSA,A,3,01,02,03,04,05,06,07,08,09,10,11,12,1.0,1.0,1.0*30\n$GPRMC,112327.941,A,5230.838,N,01320.354,E,138.8,267.1,140322,000.0,W*71",

    "$GPGGA,112328.941,5230.835,N,01320.290,E,1,12,1.0,0.0,M,0.0,M,,*68\n$GPGSA,A,3,01,02,03,04,05,06,07,08,09,10,11,12,1.0,1.0,1.0*30\n$GPRMC,112328.941,A,5230.835,N,01320.290,E,144.9,265.9,140322,000.0,W*7A",

    "$GPGGA,112329.941,5230.830,N,01320.225,E,1,12,1.0,0.0,M,0.0,M,,*62\n$GPGSA,A,3,01,02,03,04,05,06,07,08,09,10,11,12,1.0,1.0,1.0*30\n$GPRMC,112329.941,A,5230.830,N,01320.225,E,154.2,105.1,140322,000.0,W*77",

    "$GPGGA,112330.941,5230.813,N,01320.289,E,1,12,1.0,0.0,M,0.0,M,,*6D\n$GPGSA,A,3,01,02,03,04,05,06,07,08,09,10,11,12,1.0,1.0,1.0*30\n$GPRMC,112330.941,A,5230.813,N,01320.289,E,151.3,267.7,140322,000.0,W*7D",

    "$GPGGA,112331.941,5230.810,N,01320.220,E,1,12,1.0,0.0,M,0.0,M,,*6C\n$GPGSA,A,3,01,02,03,04,05,06,07,08,09,10,11,12,1.0,1.0,1.0*30\n$GPRMC,112331.941,A,5230.810,N,01320.220,E,443.6,086.8,140322,000.0,W*7D",

    "$GPGGA,112332.941,5230.822,N,01320.422,E,1,12,1.0,0.0,M,0.0,M,,*6A\n$GPGSA,A,3,01,02,03,04,05,06,07,08,09,10,11,12,1.0,1.0,1.0*30\n$GPRMC,112332.941,A,5230.822,N,01320.422,E,442.5,086.5,140322,000.0,W*74",

    "$GPGGA,112333.941,5230.834,N,01320.623,E,1,12,1.0,0.0,M,0.0,M,,*6F\n$GPGSA,A,3,01,02,03,04,05,06,07,08,09,10,11,12,1.0,1.0,1.0*30\n$GPRMC,112333.941,A,5230.834,N,01320.623,E,364.7,079.3,140322,000.0,W*76",

    "$GPGGA,112334.941,5230.864,N,01320.782,E,1,12,1.0,0.0,M,0.0,M,,*67\n$GPGSA,A,3,01,02,03,04,05,06,07,08,09,10,11,12,1.0,1.0,1.0*30\n$GPRMC,112334.941,A,5230.864,N,01320.782,E,205.1,083.7,140322,000.0,W*7F",

    "$GPGGA,112335.941,5230.874,N,01320.874,E,1,12,1.0,0.0,M,0.0,M,,*61\n$GPGSA,A,3,01,02,03,04,05,06,07,08,09,10,11,12,1.0,1.0,1.0*30\n$GPRMC,112335.941,A,5230.874,N,01320.874,E,205.1,083.7,140322,000.0,W*79"
    ]
}